{
"type": "FeatureCollection",
"name": "streamlit水質情況",
"crs": { "type": "name", "properties": { "name": "urn:ogc:def:crs:EPSG::3857" } },
"features": [
{ "type": "Feature", "properties": { "STATION_NAME": "七美海域", "SS": 35.2, "CHL_a": 5.46, "NH3_N": 0.39, "NO3_N": 0.41, "MI3PO4": 0.147, "NO2_N": 0.088, "SiO2": 2.084, "Cd": 0.0033, "Cr": 0.0413, "Cu": 0.00484, "Zn": 0.01519, "Pb": 0.00352, "Hg": 0.00206, "LON": 119.417672, "LAT": 23.190112, "TYPE": "澎湖沿海海域" }, "geometry": { "type": "Point", "coordinates": [ 13293514.438758162781596, 2655025.716157885268331 ] } },
{ "type": "Feature", "properties": { "STATION_NAME": "三條崙外海", "SS": 146.0, "CHL_a": 4.46, "NH3_N": 0.56, "NO3_N": 0.39, "MI3PO4": 0.082, "NO2_N": 0.05, "SiO2": 2.698, "Cd": 0.0024, "Cr": 0.04227, "Cu": 0.00462, "Zn": 0.01639, "Pb": 0.00342, "Hg": 0.00206, "LON": 120.061605, "LAT": 23.662595, "TYPE": "雲林沿海海域" }, "geometry": { "type": "Point", "coordinates": [ 13365196.732423147186637, 2712347.408709274604917 ] } },
{ "type": "Feature", "properties": { "STATION_NAME": "中港溪口一", "SS": 23.9, "CHL_a": 6.49, "NH3_N": 0.22, "NO3_N": 0.23, "MI3PO4": 0.0984, "NO2_N": 0.046, "SiO2": 5.087, "Cd": 0.0027, "Cr": 0.061, "Cu": 0.00304, "Zn": 0.01643, "Pb": 0.00342, "Hg": 0.00206, "LON": 120.790144, "LAT": 24.69257, "TYPE": "新竹香山沿海海域" }, "geometry": { "type": "Point", "coordinates": [ 13446297.322926189750433, 2838030.756343939341605 ] } },
{ "type": "Feature", "properties": { "STATION_NAME": "中港溪口二", "SS": 20.3, "CHL_a": 8.99, "NH3_N": 0.24, "NO3_N": 0.26, "MI3PO4": 0.0925, "NO2_N": 0.046, "SiO2": 2.777, "Cd": 0.0027, "Cr": 0.06138, "Cu": 0.0031, "Zn": 0.02163, "Pb": 0.00342, "Hg": 0.00206, "LON": 120.816888, "LAT": 24.68417, "TYPE": "新竹香山沿海海域" }, "geometry": { "type": "Point", "coordinates": [ 13449274.451387964189053, 2837001.600554414093494 ] } },
{ "type": "Feature", "properties": { "STATION_NAME": "中芸港外", "SS": 51.7, "CHL_a": 8.66, "NH3_N": 0.68, "NO3_N": 0.524, "MI3PO4": 0.115, "NO2_N": 0.07, "SiO2": 2.658, "Cd": 0.0023025, "Cr": 0.04095, "Cu": 0.004, "Zn": 0.05321, "Pb": 0.00398, "Hg": 0.00206, "LON": 120.39373, "LAT": 22.476117, "TYPE": "高屏溪口沿海海域" }, "geometry": { "type": "Point", "coordinates": [ 13402168.718302864581347, 2568785.60061444202438 ] } },
{ "type": "Feature", "properties": { "STATION_NAME": "二仁溪口", "SS": 66.4, "CHL_a": 32.7, "NH3_N": 1.56, "NO3_N": 0.454, "MI3PO4": 0.112, "NO2_N": 0.15, "SiO2": 2.622, "Cd": 0.0023025, "Cr": 0.04162, "Cu": 0.006, "Zn": 0.09544, "Pb": 0.00438, "Hg": 0.00206, "LON": 120.172147, "LAT": 22.910517, "TYPE": "二仁溪口沿海海域" }, "geometry": { "type": "Point", "coordinates": [ 13377502.211574418470263, 2621200.763399560470134 ] } },
{ "type": "Feature", "properties": { "STATION_NAME": "二仁溪口北側", "SS": 71.6, "CHL_a": 11.7, "NH3_N": 0.47, "NO3_N": 0.158, "MI3PO4": 0.102, "NO2_N": 0.04, "SiO2": 1.203, "Cd": 0.0023025, "Cr": 0.04146, "Cu": 0.00572, "Zn": 0.07776, "Pb": 0.00478, "Hg": 0.00206, "LON": 120.161175, "LAT": 22.920129, "TYPE": "二仁溪口沿海海域" }, "geometry": { "type": "Point", "coordinates": [ 13376280.814121434465051, 2622362.444718666840345 ] } },
{ "type": "Feature", "properties": { "STATION_NAME": "二仁溪口南側", "SS": 74.1, "CHL_a": 10.64, "NH3_N": 0.46, "NO3_N": 0.158, "MI3PO4": 0.098, "NO2_N": 0.034, "SiO2": 1.225, "Cd": 0.0023025, "Cr": 0.04154, "Cu": 0.00472, "Zn": 0.04824, "Pb": 0.00378, "Hg": 0.00206, "LON": 120.158479, "LAT": 22.889351, "TYPE": "二仁溪口沿海海域" }, "geometry": { "type": "Point", "coordinates": [ 13375980.696774255484343, 2618642.985997117590159 ] } },
{ "type": "Feature", "properties": { "STATION_NAME": "二仁溪口外4海浬", "SS": 79.5, "CHL_a": 10.31, "NH3_N": 0.51, "NO3_N": 0.174, "MI3PO4": 0.111, "NO2_N": 0.026, "SiO2": 1.114, "Cd": 0.0033, "Cr": 0.040791, "Cu": 0.00474, "Zn": 0.0269, "Pb": 0.00338, "Hg": 0.00206, "LON": 120.114481, "LAT": 22.910659, "TYPE": "二仁溪口沿海海域" }, "geometry": { "type": "Point", "coordinates": [ 13371082.861818332225084, 2621217.924550721887499 ] } },
{ "type": "Feature", "properties": { "STATION_NAME": "二仁溪口外側", "SS": 59.3, "CHL_a": 10.52, "NH3_N": 0.46, "NO3_N": 0.158, "MI3PO4": 0.097, "NO2_N": 0.05, "SiO2": 1.213, "Cd": 0.0023025, "Cr": 0.04151, "Cu": 0.00452, "Zn": 0.02131, "Pb": 0.00338, "Hg": 0.00206, "LON": 120.151647, "LAT": 22.910101, "TYPE": "二仁溪口沿海海域" }, "geometry": { "type": "Point", "coordinates": [ 13375220.162013156339526, 2621150.488581314217299 ] } },
{ "type": "Feature", "properties": { "STATION_NAME": "八掌溪口北側", "SS": 104.2, "CHL_a": 10.66, "NH3_N": 0.44, "NO3_N": 0.204, "MI3PO4": 0.122, "NO2_N": 0.034, "SiO2": 1.303, "Cd": 0.0014025, "Cr": 0.042, "Cu": 0.0061, "Zn": 0.01085, "Pb": 0.00342, "Hg": 0.00206, "LON": 120.119036, "LAT": 23.365493, "TYPE": "東石布袋沿海海域" }, "geometry": { "type": "Point", "coordinates": [ 13371589.922098895534873, 2676279.083812700584531 ] } },
{ "type": "Feature", "properties": { "STATION_NAME": "八掌溪口外海", "SS": 104.8, "CHL_a": 6.45, "NH3_N": 0.38, "NO3_N": 0.124, "MI3PO4": 0.079, "NO2_N": 0.032, "SiO2": 1.059, "Cd": 0.0014025, "Cr": 0.04098, "Cu": 0.00512, "Zn": 0.00781, "Pb": 0.00342, "Hg": 0.00206, "LON": 120.0671021, "LAT": 23.3365059, "TYPE": "東石布袋沿海海域" }, "geometry": { "type": "Point", "coordinates": [ 13365808.666795987635851, 2672764.378921390976757 ] } },
{ "type": "Feature", "properties": { "STATION_NAME": "八斗子垃圾場", "SS": 15.7, "CHL_a": 4.3, "NH3_N": 0.29, "NO3_N": 0.51, "MI3PO4": 0.14, "NO2_N": 0.08, "SiO2": 3.512, "Cd": 0.0027, "Cr": 0.04156, "Cu": 0.00312, "Zn": 0.01114, "Pb": 0.00342, "Hg": 0.00206, "LON": 121.801701, "LAT": 25.150636, "TYPE": "基隆沿海海域" }, "geometry": { "type": "Point", "coordinates": [ 13558903.333074558526278, 2894258.235026087146252 ] } },
{ "type": "Feature", "properties": { "STATION_NAME": "八里污水廠外海一", "SS": 27.7, "CHL_a": 5.3, "NH3_N": 0.45, "NO3_N": 0.61, "MI3PO4": 0.133, "NO2_N": 0.12, "SiO2": 3.255, "Cd": 0.0027, "Cr": 0.04255, "Cu": 0.00322, "Zn": 0.01227, "Pb": 0.00342, "Hg": 0.00206, "LON": 121.363775, "LAT": 25.222152, "TYPE": "臺北沿海海域" }, "geometry": { "type": "Point", "coordinates": [ 13510153.633749425411224, 2903055.757312595844269 ] } },
{ "type": "Feature", "properties": { "STATION_NAME": "八里污水廠外海二", "SS": 28.6, "CHL_a": 5.01, "NH3_N": 0.91, "NO3_N": 0.62, "MI3PO4": 0.216, "NO2_N": 0.15, "SiO2": 3.06, "Cd": 0.0027, "Cr": 0.04288, "Cu": 0.0031, "Zn": 0.0139, "Pb": 0.00342, "Hg": 0.00206, "LON": 121.40077, "LAT": 25.222617, "TYPE": "臺北沿海海域" }, "geometry": { "type": "Point", "coordinates": [ 13514271.898311322554946, 2903112.976076197810471 ] } },
{ "type": "Feature", "properties": { "STATION_NAME": "六輕沿海一", "SS": 163.8, "CHL_a": 6.82, "NH3_N": 0.52, "NO3_N": 0.42, "MI3PO4": 0.084, "NO2_N": 0.05, "SiO2": 2.685, "Cd": 0.0024, "Cr": 0.04192, "Cu": 0.0058, "Zn": 0.01252, "Pb": 0.00342, "Hg": 0.00206, "LON": 120.15133, "LAT": 23.827345, "TYPE": "雲林沿海海域" }, "geometry": { "type": "Point", "coordinates": [ 13375184.873734574764967, 2732383.414970020763576 ] } },
{ "type": "Feature", "properties": { "STATION_NAME": "六輕沿海二", "SS": 244.8, "CHL_a": 9.83, "NH3_N": 0.59, "NO3_N": 0.43, "MI3PO4": 0.097, "NO2_N": 0.05, "SiO2": 2.726, "Cd": 0.0024, "Cr": 0.0421, "Cu": 0.0053, "Zn": 0.01543, "Pb": 0.00342, "Hg": 0.00206, "LON": 120.168943, "LAT": 23.801924, "TYPE": "雲林沿海海域" }, "geometry": { "type": "Point", "coordinates": [ 13377145.543925916776061, 2729290.194767110049725 ] } },
{ "type": "Feature", "properties": { "STATION_NAME": "北港溪口一", "SS": 302.2, "CHL_a": 25.77, "NH3_N": 0.41, "NO3_N": 0.32, "MI3PO4": 0.154, "NO2_N": 0.102, "SiO2": 2.047, "Cd": 0.0024, "Cr": 0.04121, "Cu": 0.0054, "Zn": 0.01441, "Pb": 0.00342, "Hg": 0.00206, "LON": 120.13368, "LAT": 23.538268, "TYPE": "雲林沿海海域" }, "geometry": { "type": "Point", "coordinates": [ 13373220.084722073748708, 2697244.145367207471281 ] } },
{ "type": "Feature", "properties": { "STATION_NAME": "北港溪口外海", "SS": 178.6, "CHL_a": 11.68, "NH3_N": 0.33, "NO3_N": 0.244, "MI3PO4": 0.129, "NO2_N": 0.092, "SiO2": 1.948, "Cd": 0.0014025, "Cr": 0.04075, "Cu": 0.006, "Zn": 0.01346, "Pb": 0.00342, "Hg": 0.00206, "LON": 120.1078203, "LAT": 23.556051, "TYPE": "東石布袋沿海海域" }, "geometry": { "type": "Point", "coordinates": [ 13370341.396086007356644, 2699403.550155329983681 ] } },
{ "type": "Feature", "properties": { "STATION_NAME": "北竿東部沿海", "SS": 45.8, "CHL_a": 16.1, "NH3_N": 0.411, "NO3_N": 0.84, "MI3PO4": 0.22, "NO2_N": 0.054, "SiO2": 5.479, "Cd": 0.0024, "Cr": 0.04107, "Cu": 0.0049, "Zn": 0.01338, "Pb": 0.00348, "Hg": 0.00206, "LON": 120.018425, "LAT": 26.236458, "TYPE": "馬祖沿海海域" }, "geometry": { "type": "Point", "coordinates": [ 13360389.95681069418788, 3028396.876732485834509 ] } },
{ "type": "Feature", "properties": { "STATION_NAME": "卑南溪口外4海浬", "SS": 22.1, "CHL_a": 2.65, "NH3_N": 0.34, "NO3_N": 0.2, "MI3PO4": 0.067, "NO2_N": 0.636, "SiO2": 0.927, "Cd": 0.0033, "Cr": 0.04115, "Cu": 0.00484, "Zn": 0.01996, "Pb": 0.00352, "Hg": 0.00206, "LON": 121.23079, "LAT": 22.750991, "TYPE": "臺東沿海海域" }, "geometry": { "type": "Point", "coordinates": [ 13495349.811266282573342, 2601932.858880227897316 ] } },
{ "type": "Feature", "properties": { "STATION_NAME": "卑南溪河口", "SS": 71.9, "CHL_a": 3.13, "NH3_N": 0.41, "NO3_N": 0.214, "MI3PO4": 0.079, "NO2_N": 0.636, "SiO2": 1.668, "Cd": 0.0033, "Cr": 0.04089, "Cu": 0.00524, "Zn": 0.02646, "Pb": 0.00342, "Hg": 0.00206, "LON": 121.178903, "LAT": 22.761827, "TYPE": "臺東沿海海域" }, "geometry": { "type": "Point", "coordinates": [ 13489573.776847491040826, 2603240.940993218682706 ] } },
{ "type": "Feature", "properties": { "STATION_NAME": "南灣", "SS": 39.7, "CHL_a": 2.67, "NH3_N": 0.3, "NO3_N": 0.21, "MI3PO4": 0.087, "NO2_N": 0.644, "SiO2": 1.407, "Cd": 0.0033, "Cr": 0.04135, "Cu": 0.004, "Zn": 0.01302, "Pb": 0.00342, "Hg": 0.00206, "LON": 120.771418, "LAT": 21.94981, "TYPE": "南灣核三廠沿海海域" }, "geometry": { "type": "Point", "coordinates": [ 13444212.75414159335196, 2505500.391480071935803 ] } },
{ "type": "Feature", "properties": { "STATION_NAME": "南竿鄉北部沿海", "SS": 57.1, "CHL_a": 8.3, "NH3_N": 0.351, "NO3_N": 0.89, "MI3PO4": 0.193, "NO2_N": 0.054, "SiO2": 5.654, "Cd": 0.0024, "Cr": 0.04063, "Cu": 0.0062, "Zn": 0.01438, "Pb": 0.00342, "Hg": 0.00206, "LON": 119.924698, "LAT": 26.173927, "TYPE": "馬祖沿海海域" }, "geometry": { "type": "Point", "coordinates": [ 13349956.314897112548351, 3020638.542809952516109 ] } },
{ "type": "Feature", "properties": { "STATION_NAME": "台西外海", "SS": 105.3, "CHL_a": 5.7, "NH3_N": 0.27, "NO3_N": 0.34, "MI3PO4": 0.067, "NO2_N": 0.044, "SiO2": 1.806, "Cd": 0.0004, "Cr": 0.04, "Cu": 0.00292, "Zn": 0.0086, "Pb": 0.00142, "Hg": 0.00176, "LON": 120.118126, "LAT": 23.720181, "TYPE": "雲林沿海海域" }, "geometry": { "type": "Point", "coordinates": [ 13371488.621362274512649, 2719347.827589752618223 ] } },
{ "type": "Feature", "properties": { "STATION_NAME": "吉貝海域", "SS": 31.3, "CHL_a": 3.91, "NH3_N": 0.44, "NO3_N": 0.24, "MI3PO4": 0.11, "NO2_N": 0.04, "SiO2": 1.387, "Cd": 0.0033, "Cr": 0.04183, "Cu": 0.00412, "Zn": 0.01065, "Pb": 0.00352, "Hg": 0.00206, "LON": 119.615619, "LAT": 23.733909, "TYPE": "澎湖沿海海域" }, "geometry": { "type": "Point", "coordinates": [ 13315549.798002218827605, 2721017.122447819914669 ] } },
{ "type": "Feature", "properties": { "STATION_NAME": "和平島", "SS": 20.0, "CHL_a": 4.4, "NH3_N": 0.38, "NO3_N": 0.53, "MI3PO4": 0.136, "NO2_N": 0.074, "SiO2": 3.616, "Cd": 0.0027, "Cr": 0.04145, "Cu": 0.00312, "Zn": 0.01231, "Pb": 0.00342, "Hg": 0.00206, "LON": 121.76483, "LAT": 25.166219, "TYPE": "基隆沿海海域" }, "geometry": { "type": "Point", "coordinates": [ 13554798.872129520401359, 2896174.73388593737036 ] } },
{ "type": "Feature", "properties": { "STATION_NAME": "和平港", "SS": 18.1, "CHL_a": 4.2, "NH3_N": 0.16, "NO3_N": 0.92, "MI3PO4": 0.186, "NO2_N": 0.084, "SiO2": 6.002, "Cd": 0.0024, "Cr": 0.06329, "Cu": 0.00314, "Zn": 0.01051, "Pb": 0.00342, "Hg": 0.00206, "LON": 121.776009, "LAT": 24.300055, "TYPE": "花蓮沿海海域" }, "geometry": { "type": "Point", "coordinates": [ 13556043.312717098742723, 2790013.977157853078097 ] } },
{ "type": "Feature", "properties": { "STATION_NAME": "和平溪口外4海浬處", "SS": 16.0, "CHL_a": 1.4, "NH3_N": 0.17, "NO3_N": 0.22, "MI3PO4": 0.074, "NO2_N": 0.042, "SiO2": 2.134, "Cd": 0.0024, "Cr": 0.06341, "Cu": 0.00324, "Zn": 0.02215, "Pb": 0.00342, "Hg": 0.00206, "LON": 121.833917, "LAT": 24.298113, "TYPE": "花蓮沿海海域" }, "geometry": { "type": "Point", "coordinates": [ 13562489.601789955049753, 2789776.781509996857494 ] } },
{ "type": "Feature", "properties": { "STATION_NAME": "和平溪河口", "SS": 17.1, "CHL_a": 1.9, "NH3_N": 0.17, "NO3_N": 0.16, "MI3PO4": 0.078, "NO2_N": 0.042, "SiO2": 2.093, "Cd": 0.0024, "Cr": 0.06343, "Cu": 0.00342, "Zn": 0.01285, "Pb": 0.00342, "Hg": 0.00206, "LON": 121.786608, "LAT": 24.315765, "TYPE": "花蓮沿海海域" }, "geometry": { "type": "Point", "coordinates": [ 13557223.188000017777085, 2791932.928174064029008 ] } },
{ "type": "Feature", "properties": { "STATION_NAME": "員山子分洪道出海口", "SS": 19.8, "CHL_a": 6.94, "NH3_N": 0.43, "NO3_N": 0.5, "MI3PO4": 0.112, "NO2_N": 0.072, "SiO2": 3.262, "Cd": 0.0027, "Cr": 0.041, "Cu": 0.00497, "Zn": 0.01734, "Pb": 0.00342, "Hg": 0.00206, "LON": 121.843846, "LAT": 25.128573, "TYPE": "基隆沿海海域" }, "geometry": { "type": "Point", "coordinates": [ 13563594.89301404170692, 2891545.202013721689582 ] } },
{ "type": "Feature", "properties": { "STATION_NAME": "基隆拋泥區一", "SS": 16.5, "CHL_a": 3.31, "NH3_N": 0.19, "NO3_N": 0.49, "MI3PO4": 0.18, "NO2_N": 0.054, "SiO2": 3.23, "Cd": 0.0027, "Cr": 0.04138, "Cu": 0.00294, "Zn": 0.01187, "Pb": 0.00342, "Hg": 0.00206, "LON": 121.764101, "LAT": 25.188152, "TYPE": "基隆沿海海域" }, "geometry": { "type": "Point", "coordinates": [ 13554717.720220731571317, 2898872.612116873729974 ] } },
{ "type": "Feature", "properties": { "STATION_NAME": "基隆港一", "SS": 13.3, "CHL_a": 7.01, "NH3_N": 0.36, "NO3_N": 0.5, "MI3PO4": 0.173, "NO2_N": 0.046, "SiO2": 3.173, "Cd": 0.0027, "Cr": 0.04097, "Cu": 0.00302, "Zn": 0.01243, "Pb": 0.00358, "Hg": 0.00206, "LON": 121.752047, "LAT": 25.164942, "TYPE": "基隆沿海海域" }, "geometry": { "type": "Point", "coordinates": [ 13553375.875078711658716, 2896017.670896445866674 ] } },
{ "type": "Feature", "properties": { "STATION_NAME": "基隆港二", "SS": 18.1, "CHL_a": 6.91, "NH3_N": 0.49, "NO3_N": 0.51, "MI3PO4": 0.182, "NO2_N": 0.052, "SiO2": 3.186, "Cd": 0.0027, "Cr": 0.04096, "Cu": 0.00294, "Zn": 0.01237, "Pb": 0.00342, "Hg": 0.00206, "LON": 121.760548, "LAT": 25.163691, "TYPE": "基隆沿海海域" }, "geometry": { "type": "Point", "coordinates": [ 13554322.202069945633411, 2895863.807338605169207 ] } },
{ "type": "Feature", "properties": { "STATION_NAME": "外垵4海浬外", "SS": 25.5, "CHL_a": 4.24, "NH3_N": 0.56, "NO3_N": 0.25, "MI3PO4": 0.119, "NO2_N": 0.026, "SiO2": 1.45, "Cd": 0.0033, "Cr": 0.04222, "Cu": 0.00372, "Zn": 0.015, "Pb": 0.00358, "Hg": 0.00206, "LON": 119.486607, "LAT": 23.515498, "TYPE": "澎湖沿海海域" }, "geometry": { "type": "Point", "coordinates": [ 13301188.247855998575687, 2694479.591109868139029 ] } },
{ "type": "Feature", "properties": { "STATION_NAME": "大安溪口", "SS": 36.4, "CHL_a": 6.89, "NH3_N": 0.22, "NO3_N": 0.22, "MI3PO4": 0.106, "NO2_N": 0.046, "SiO2": 2.699, "Cd": 0.00274, "Cr": 0.06153, "Cu": 0.00414, "Zn": 0.01609, "Pb": 0.00348, "Hg": 0.00206, "LON": 120.585687, "LAT": 24.411452, "TYPE": "臺中港沿海海域" }, "geometry": { "type": "Point", "coordinates": [ 13423537.273797068744898, 2803626.081760075408965 ] } },
{ "type": "Feature", "properties": { "STATION_NAME": "大安溪口外海", "SS": 21.2, "CHL_a": 6.4, "NH3_N": 0.22, "NO3_N": 0.19, "MI3PO4": 0.12, "NO2_N": 0.044, "SiO2": 2.417, "Cd": 0.00274, "Cr": 0.06126, "Cu": 0.00812, "Zn": 0.03676, "Pb": 0.00404, "Hg": 0.00206, "LON": 120.55126, "LAT": 24.42936, "TYPE": "臺中港沿海海域" }, "geometry": { "type": "Point", "coordinates": [ 13419704.877687528729439, 2805815.460776771884412 ] } },
{ "type": "Feature", "properties": { "STATION_NAME": "大崛溪口", "SS": 49.7, "CHL_a": 2.9, "NH3_N": 0.8, "NO3_N": 0.64, "MI3PO4": 0.201, "NO2_N": 0.104, "SiO2": 2.889, "Cd": 0.0027, "Cr": 0.06155, "Cu": 0.0041, "Zn": 0.01759, "Pb": 0.00342, "Hg": 0.00206, "LON": 121.0960475, "LAT": 25.0617401, "TYPE": "桃園沿海海域" }, "geometry": { "type": "Point", "coordinates": [ 13480350.344778070226312, 2883329.911863617133349 ] } },
{ "type": "Feature", "properties": { "STATION_NAME": "大崛溪口外海", "SS": 44.5, "CHL_a": 3.0, "NH3_N": 0.49, "NO3_N": 0.37, "MI3PO4": 0.151, "NO2_N": 0.094, "SiO2": 2.677, "Cd": 0.0027, "Cr": 0.06145, "Cu": 0.00362, "Zn": 0.01242, "Pb": 0.00378, "Hg": 0.00206, "LON": 121.0670128, "LAT": 25.0983815, "TYPE": "桃園沿海海域" }, "geometry": { "type": "Point", "coordinates": [ 13477118.216758733615279, 2887833.421169616281986 ] } },
{ "type": "Feature", "properties": { "STATION_NAME": "大林火力發電廠導流堤外", "SS": 55.1, "CHL_a": 8.29, "NH3_N": 0.59, "NO3_N": 0.364, "MI3PO4": 0.113, "NO2_N": 0.068, "SiO2": 2.367, "Cd": 0.0033, "Cr": 0.04082, "Cu": 0.0044, "Zn": 0.05793, "Pb": 0.00428, "Hg": 0.00206, "LON": 120.32618, "LAT": 22.52162, "TYPE": "高屏溪口沿海海域" }, "geometry": { "type": "Point", "coordinates": [ 13394649.086699778214097, 2574268.27379467850551 ] } },
{ "type": "Feature", "properties": { "STATION_NAME": "大林火力發電廠導流堤外海", "SS": 69.5, "CHL_a": 7.9, "NH3_N": 0.57, "NO3_N": 0.354, "MI3PO4": 0.109, "NO2_N": 0.068, "SiO2": 2.54, "Cd": 0.0033, "Cr": 0.04088, "Cu": 0.0057, "Zn": 0.0486, "Pb": 0.00388, "Hg": 0.00206, "LON": 120.32995, "LAT": 22.50405, "TYPE": "高屏溪口沿海海域" }, "geometry": { "type": "Point", "coordinates": [ 13395068.761180069297552, 2572151.044279857072979 ] } },
{ "type": "Feature", "properties": { "STATION_NAME": "大肚溪口", "SS": 78.3, "CHL_a": 3.85, "NH3_N": 0.33, "NO3_N": 0.69, "MI3PO4": 0.115, "NO2_N": 0.118, "SiO2": 4.521, "Cd": 0.0024, "Cr": 0.06211, "Cu": 0.0072, "Zn": 0.0272, "Pb": 0.00342, "Hg": 0.00206, "LON": 120.478358, "LAT": 24.202987, "TYPE": "臺中港沿海海域" }, "geometry": { "type": "Point", "coordinates": [ 13411589.464169718325138, 2778162.539113479200751 ] } },
{ "type": "Feature", "properties": { "STATION_NAME": "大肚溪口外4海浬", "SS": 55.0, "CHL_a": 2.95, "NH3_N": 0.26, "NO3_N": 0.21, "MI3PO4": 0.066, "NO2_N": 0.042, "SiO2": 2.239, "Cd": 0.0024, "Cr": 0.06253, "Cu": 0.0094, "Zn": 0.03445, "Pb": 0.00342, "Hg": 0.00206, "LON": 120.42518, "LAT": 24.20855, "TYPE": "臺中港沿海海域" }, "geometry": { "type": "Point", "coordinates": [ 13405669.71628831140697, 2778841.504900138825178 ] } },
{ "type": "Feature", "properties": { "STATION_NAME": "大鵬灣灣內-1", "SS": 65.9, "CHL_a": 102.0, "NH3_N": 0.44, "NO3_N": 0.304, "MI3PO4": 0.384, "NO2_N": 0.09, "SiO2": 3.786, "Cd": 0.0033, "Cr": 0.04154, "Cu": 0.00712, "Zn": 0.01483, "Pb": 0.00342, "Hg": 0.00206, "LON": 120.483032, "LAT": 22.435918, "TYPE": "大鵬灣沿海海域" }, "geometry": { "type": "Point", "coordinates": [ 13412109.771469684317708, 2563943.506957358680665 ] } },
{ "type": "Feature", "properties": { "STATION_NAME": "大鵬灣灣內-2", "SS": 78.9, "CHL_a": 10.27, "NH3_N": 0.34, "NO3_N": 0.21, "MI3PO4": 0.145, "NO2_N": 0.026, "SiO2": 2.686, "Cd": 0.0033, "Cr": 0.04126, "Cu": 0.00632, "Zn": 0.01342, "Pb": 0.00342, "Hg": 0.00206, "LON": 120.48556, "LAT": 22.438973, "TYPE": "大鵬灣沿海海域" }, "geometry": { "type": "Point", "coordinates": [ 13412391.187142411246896, 2564311.44185510231182 ] } },
{ "type": "Feature", "properties": { "STATION_NAME": "安南區外海1", "SS": 50.0, "CHL_a": 9.28, "NH3_N": 0.3, "NO3_N": 0.108, "MI3PO4": 0.088, "NO2_N": 0.024, "SiO2": 0.993, "Cd": 0.0024, "Cr": 0.04107, "Cu": 0.00592, "Zn": 0.22009, "Pb": 0.00818, "Hg": 0.00206, "LON": 120.0527641, "LAT": 22.9977917, "TYPE": "二仁溪口沿海海域" }, "geometry": { "type": "Point", "coordinates": [ 13364212.56793699413538, 2631751.583241412416101 ] } },
{ "type": "Feature", "properties": { "STATION_NAME": "安南區外海2", "SS": 80.1, "CHL_a": 9.05, "NH3_N": 0.32, "NO3_N": 0.108, "MI3PO4": 0.088, "NO2_N": 0.024, "SiO2": 0.977, "Cd": 0.0024, "Cr": 0.04093, "Cu": 0.00404, "Zn": 0.15015, "Pb": 0.00528, "Hg": 0.00206, "LON": 120.090843, "LAT": 22.9738554, "TYPE": "二仁溪口沿海海域" }, "geometry": { "type": "Point", "coordinates": [ 13368451.491694962605834, 2628857.196530733723193 ] } },
{ "type": "Feature", "properties": { "STATION_NAME": "客雅溪河口外4海浬處", "SS": 22.6, "CHL_a": 7.6, "NH3_N": 0.34, "NO3_N": 0.32, "MI3PO4": 0.067, "NO2_N": 0.054, "SiO2": 2.293, "Cd": 0.0027, "Cr": 0.06201, "Cu": 0.0036, "Zn": 0.01575, "Pb": 0.00342, "Hg": 0.00206, "LON": 120.832628, "LAT": 24.806303, "TYPE": "新竹香山沿海海域" }, "geometry": { "type": "Point", "coordinates": [ 13451026.620173050090671, 2851971.999939758330584 ] } },
{ "type": "Feature", "properties": { "STATION_NAME": "富岡港外", "SS": 35.3, "CHL_a": 2.88, "NH3_N": 0.37, "NO3_N": 0.194, "MI3PO4": 0.069, "NO2_N": 0.636, "SiO2": 1.143, "Cd": 0.0033, "Cr": 0.04102, "Cu": 0.00742, "Zn": 0.0195, "Pb": 0.00348, "Hg": 0.00206, "LON": 121.190737, "LAT": 22.78466, "TYPE": "臺東沿海海域" }, "geometry": { "type": "Point", "coordinates": [ 13490891.131701538339257, 2605997.596760519780219 ] } },
{ "type": "Feature", "properties": { "STATION_NAME": "布袋港外海一", "SS": 146.5, "CHL_a": 6.94, "NH3_N": 0.45, "NO3_N": 0.224, "MI3PO4": 0.099, "NO2_N": 0.04, "SiO2": 1.334, "Cd": 0.0014025, "Cr": 0.04221, "Cu": 0.0046, "Zn": 0.01031, "Pb": 0.00342, "Hg": 0.00206, "LON": 120.107954, "LAT": 23.398299, "TYPE": "東石布袋沿海海域" }, "geometry": { "type": "Point", "coordinates": [ 13370356.279501926153898, 2680257.759686683770269 ] } },
{ "type": "Feature", "properties": { "STATION_NAME": "布袋港外海二", "SS": 109.8, "CHL_a": 7.44, "NH3_N": 0.43, "NO3_N": 0.174, "MI3PO4": 0.113, "NO2_N": 0.034, "SiO2": 1.359, "Cd": 0.0014025, "Cr": 0.04231, "Cu": 0.00602, "Zn": 0.00958, "Pb": 0.00342, "Hg": 0.00206, "LON": 120.130454, "LAT": 23.390075, "TYPE": "東石布袋沿海海域" }, "geometry": { "type": "Point", "coordinates": [ 13372860.968044772744179, 2679260.26942016929388 ] } },
{ "type": "Feature", "properties": { "STATION_NAME": "彰濱沿海一", "SS": 182.7, "CHL_a": 12.21, "NH3_N": 0.67, "NO3_N": 0.42, "MI3PO4": 0.209, "NO2_N": 0.07, "SiO2": 2.744, "Cd": 0.0024, "Cr": 0.04181, "Cu": 0.004, "Zn": 0.01248, "Pb": 0.00342, "Hg": 0.00206, "LON": 120.43258, "LAT": 24.182981, "TYPE": "彰濱沿海海域" }, "geometry": { "type": "Point", "coordinates": [ 13406493.480520183220506, 2775721.045748015400022 ] } },
{ "type": "Feature", "properties": { "STATION_NAME": "彰濱沿海三", "SS": 180.7, "CHL_a": 9.3, "NH3_N": 0.67, "NO3_N": 0.49, "MI3PO4": 0.12, "NO2_N": 0.066, "SiO2": 2.75, "Cd": 0.0024, "Cr": 0.04132, "Cu": 0.005, "Zn": 0.01085, "Pb": 0.00342, "Hg": 0.00206, "LON": 120.381248, "LAT": 24.107958, "TYPE": "彰濱沿海海域" }, "geometry": { "type": "Point", "coordinates": [ 13400779.228418780490756, 2766568.790494109038264 ] } },
{ "type": "Feature", "properties": { "STATION_NAME": "彰濱沿海二", "SS": 198.9, "CHL_a": 11.06, "NH3_N": 0.61, "NO3_N": 0.384, "MI3PO4": 0.097, "NO2_N": 0.05, "SiO2": 2.635, "Cd": 0.0024, "Cr": 0.04179, "Cu": 0.0053, "Zn": 0.01167, "Pb": 0.00342, "Hg": 0.00206, "LON": 120.407163, "LAT": 24.153874, "TYPE": "彰濱沿海海域" }, "geometry": { "type": "Point", "coordinates": [ 13403664.073022689670324, 2772169.567522927653044 ] } },
{ "type": "Feature", "properties": { "STATION_NAME": "後壁湖漁港", "SS": 45.0, "CHL_a": 1.97, "NH3_N": 0.43, "NO3_N": 0.2, "MI3PO4": 0.073, "NO2_N": 0.636, "SiO2": 1.154, "Cd": 0.0033, "Cr": 0.04115, "Cu": 0.0052, "Zn": 0.0231, "Pb": 0.00368, "Hg": 0.00206, "LON": 120.746167, "LAT": 21.943127, "TYPE": "南灣核三廠沿海海域" }, "geometry": { "type": "Point", "coordinates": [ 13441401.825679574161768, 2504698.319962932728231 ] } },
{ "type": "Feature", "properties": { "STATION_NAME": "後龍溪口", "SS": 20.1, "CHL_a": 4.5, "NH3_N": 0.17, "NO3_N": 0.18, "MI3PO4": 0.0774, "NO2_N": 0.044, "SiO2": 2.389, "Cd": 0.0027, "Cr": 0.06098, "Cu": 0.00322, "Zn": 0.01779, "Pb": 0.00358, "Hg": 0.00206, "LON": 120.7420289, "LAT": 24.6223673, "TYPE": "新竹香山沿海海域" }, "geometry": { "type": "Point", "coordinates": [ 13440941.174494720995426, 2829431.753548516891897 ] } },
{ "type": "Feature", "properties": { "STATION_NAME": "後龍溪口外海", "SS": 23.8, "CHL_a": 4.4, "NH3_N": 0.17, "NO3_N": 0.18, "MI3PO4": 0.0774, "NO2_N": 0.044, "SiO2": 2.294, "Cd": 0.0024, "Cr": 0.06147, "Cu": 0.00332, "Zn": 0.02307, "Pb": 0.00348, "Hg": 0.00206, "LON": 120.71113, "LAT": 24.65063, "TYPE": "新竹香山沿海海域" }, "geometry": { "type": "Point", "coordinates": [ 13437501.524680647999048, 2832893.019420970231295 ] } },
{ "type": "Feature", "properties": { "STATION_NAME": "得子口溪口", "SS": 26.8, "CHL_a": 26.2, "NH3_N": 0.27, "NO3_N": 0.32, "MI3PO4": 0.124, "NO2_N": 0.052, "SiO2": 2.912, "Cd": 0.0027, "Cr": 0.06152, "Cu": 0.00502, "Zn": 0.0153, "Pb": 0.00342, "Hg": 0.00206, "LON": 121.832146, "LAT": 24.840068, "TYPE": "宜蘭蘇澳沿海海域" }, "geometry": { "type": "Point", "coordinates": [ 13562292.454971760511398, 2856113.329745073802769 ] } },
{ "type": "Feature", "properties": { "STATION_NAME": "成功港外海", "SS": 20.5, "CHL_a": 2.66, "NH3_N": 0.4, "NO3_N": 0.194, "MI3PO4": 0.069, "NO2_N": 0.636, "SiO2": 0.982, "Cd": 0.0033, "Cr": 0.04097, "Cu": 0.00622, "Zn": 0.0181, "Pb": 0.00342, "Hg": 0.00206, "LON": 121.37903, "LAT": 23.084344, "TYPE": "臺東沿海海域" }, "geometry": { "type": "Point", "coordinates": [ 13511851.812581477686763, 2642221.80942625971511 ] } },
{ "type": "Feature", "properties": { "STATION_NAME": "新南崁溪口", "SS": 142.7, "CHL_a": 12.21, "NH3_N": 6.28, "NO3_N": 3.05, "MI3PO4": 1.736, "NO2_N": 0.71, "SiO2": 7.117, "Cd": 0.0027, "Cr": 0.04291, "Cu": 0.00515, "Zn": 0.01402, "Pb": 0.00342, "Hg": 0.00206, "LON": 121.245769, "LAT": 25.12237, "TYPE": "桃園沿海海域" }, "geometry": { "type": "Point", "coordinates": [ 13497017.265918873250484, 2890782.522580575197935 ] } },
{ "type": "Feature", "properties": { "STATION_NAME": "新城溪口", "SS": 25.6, "CHL_a": 25.9, "NH3_N": 0.25, "NO3_N": 0.33, "MI3PO4": 0.136, "NO2_N": 0.052, "SiO2": 3.042, "Cd": 0.0027, "Cr": 0.06174, "Cu": 0.00472, "Zn": 0.01308, "Pb": 0.00342, "Hg": 0.00206, "LON": 121.856735, "LAT": 24.631525, "TYPE": "宜蘭蘇澳沿海海域" }, "geometry": { "type": "Point", "coordinates": [ 13565029.689930876716971, 2830553.189615307375789 ] } },
{ "type": "Feature", "properties": { "STATION_NAME": "旗津", "SS": 61.9, "CHL_a": 8.89, "NH3_N": 0.58, "NO3_N": 0.18, "MI3PO4": 0.098, "NO2_N": 0.034, "SiO2": 1.458, "Cd": 0.0033, "Cr": 0.04117, "Cu": 0.0045, "Zn": 0.01968, "Pb": 0.00378, "Hg": 0.00206, "LON": 120.26271, "LAT": 22.587929, "TYPE": "高雄港沿海海域" }, "geometry": { "type": "Point", "coordinates": [ 13387583.638619128614664, 2582261.103929826524109 ] } },
{ "type": "Feature", "properties": { "STATION_NAME": "曾文溪口", "SS": 87.1, "CHL_a": 13.48, "NH3_N": 0.36, "NO3_N": 0.148, "MI3PO4": 0.155, "NO2_N": 0.032, "SiO2": 0.937, "Cd": 0.0014025, "Cr": 0.04097, "Cu": 0.0046, "Zn": 0.04146, "Pb": 0.00358, "Hg": 0.00206, "LON": 120.06049, "LAT": 23.04167, "TYPE": "二仁溪口沿海海域" }, "geometry": { "type": "Point", "coordinates": [ 13365072.611190913245082, 2637058.697644594591111 ] } },
{ "type": "Feature", "properties": { "STATION_NAME": "望安海域", "SS": 37.3, "CHL_a": 5.01, "NH3_N": 0.34, "NO3_N": 0.41, "MI3PO4": 0.142, "NO2_N": 0.088, "SiO2": 2.167, "Cd": 0.0033, "Cr": 0.04129, "Cu": 0.00414, "Zn": 0.01055, "Pb": 0.00352, "Hg": 0.00206, "LON": 119.524486, "LAT": 23.348329, "TYPE": "澎湖沿海海域" }, "geometry": { "type": "Point", "coordinates": [ 13305404.918847754597664, 2674197.844855649396777 ] } },
{ "type": "Feature", "properties": { "STATION_NAME": "朴子溪口外4海浬", "SS": 220.9, "CHL_a": 9.01, "NH3_N": 0.48, "NO3_N": 0.194, "MI3PO4": 0.104, "NO2_N": 0.034, "SiO2": 1.318, "Cd": 0.0014025, "Cr": 0.04236, "Cu": 0.0062, "Zn": 0.01081, "Pb": 0.00342, "Hg": 0.00206, "LON": 120.065429, "LAT": 23.434245, "TYPE": "東石布袋沿海海域" }, "geometry": { "type": "Point", "coordinates": [ 13365622.418155942112207, 2684618.38331132568419 ] } },
{ "type": "Feature", "properties": { "STATION_NAME": "東引北部沿海", "SS": 21.0, "CHL_a": 3.01, "NH3_N": 0.29, "NO3_N": 0.63, "MI3PO4": 0.135, "NO2_N": 0.128, "SiO2": 3.75, "Cd": 0.0024, "Cr": 0.04042, "Cu": 0.0032, "Zn": 0.01564, "Pb": 0.00342, "Hg": 0.00206, "LON": 120.4794351, "LAT": 26.3951018, "TYPE": "東引沿海海域" }, "geometry": { "type": "Point", "coordinates": [ 13411709.366393251344562, 3048098.859579384792596 ] } },
{ "type": "Feature", "properties": { "STATION_NAME": "東港溪出海口", "SS": 65.6, "CHL_a": 58.89, "NH3_N": 2.29, "NO3_N": 0.484, "MI3PO4": 0.31, "NO2_N": 0.136, "SiO2": 6.099, "Cd": 0.0023025, "Cr": 0.04094, "Cu": 0.0042, "Zn": 0.02018, "Pb": 0.00342, "Hg": 0.00206, "LON": 120.433756, "LAT": 22.464559, "TYPE": "高屏溪口沿海海域" }, "geometry": { "type": "Point", "coordinates": [ 13406624.392241356894374, 2567393.259988835547119 ] } },
{ "type": "Feature", "properties": { "STATION_NAME": "東石港外海一", "SS": 174.7, "CHL_a": 9.6, "NH3_N": 0.41, "NO3_N": 0.334, "MI3PO4": 0.142, "NO2_N": 0.102, "SiO2": 2.145, "Cd": 0.0024, "Cr": 0.04217, "Cu": 0.00542, "Zn": 0.00937, "Pb": 0.00342, "Hg": 0.00206, "LON": 120.108234, "LAT": 23.432021, "TYPE": "東石布袋沿海海域" }, "geometry": { "type": "Point", "coordinates": [ 13370387.448959346860647, 2684348.554588484112173 ] } },
{ "type": "Feature", "properties": { "STATION_NAME": "東石港外海二", "SS": 254.3, "CHL_a": 10.22, "NH3_N": 0.43, "NO3_N": 0.32, "MI3PO4": 0.147, "NO2_N": 0.096, "SiO2": 2.098, "Cd": 0.0014025, "Cr": 0.0426, "Cu": 0.0042, "Zn": 0.01021, "Pb": 0.00342, "Hg": 0.00206, "LON": 120.102818, "LAT": 23.437105, "TYPE": "東石布袋沿海海域" }, "geometry": { "type": "Point", "coordinates": [ 13369784.542597211897373, 2684965.381957003846765 ] } },
{ "type": "Feature", "properties": { "STATION_NAME": "林口發電廠", "SS": 78.0, "CHL_a": 13.22, "NH3_N": 1.92, "NO3_N": 1.6, "MI3PO4": 0.596, "NO2_N": 0.3, "SiO2": 6.164, "Cd": 0.0054, "Cr": 0.08528, "Cu": 0.0072, "Zn": 0.037, "Pb": 0.00684, "Hg": 0.00412, "LON": 121.300885, "LAT": 25.127983, "TYPE": "臺北沿海海域" }, "geometry": { "type": "Point", "coordinates": [ 13503152.750973435118794, 2891472.657889450434595 ] } },
{ "type": "Feature", "properties": { "STATION_NAME": "林口發電廠外海", "SS": 30.8, "CHL_a": 7.81, "NH3_N": 0.99, "NO3_N": 0.79, "MI3PO4": 0.281, "NO2_N": 0.15, "SiO2": 3.029, "Cd": 0.0027, "Cr": 0.04255, "Cu": 0.0031, "Zn": 0.01376, "Pb": 0.00348, "Hg": 0.00206, "LON": 121.306794, "LAT": 25.133152, "TYPE": "臺北沿海海域" }, "geometry": { "type": "Point", "coordinates": [ 13503810.537844534963369, 2892108.230104690417647 ] } },
{ "type": "Feature", "properties": { "STATION_NAME": "核三廠入水口", "SS": 43.1, "CHL_a": 2.8, "NH3_N": 0.3, "NO3_N": 0.184, "MI3PO4": 0.111, "NO2_N": 0.644, "SiO2": 1.376, "Cd": 0.0033, "Cr": 0.04154, "Cu": 0.0039, "Zn": 0.01283, "Pb": 0.00342, "Hg": 0.00206, "LON": 120.76014, "LAT": 21.950876, "TYPE": "南灣核三廠沿海海域" }, "geometry": { "type": "Point", "coordinates": [ 13442957.292924428358674, 2505628.332754414062947 ] } },
{ "type": "Feature", "properties": { "STATION_NAME": "核三廠出水口右側", "SS": 36.3, "CHL_a": 1.53, "NH3_N": 0.32, "NO3_N": 0.19, "MI3PO4": 0.073, "NO2_N": 0.026, "SiO2": 2.363, "Cd": 0.0023025, "Cr": 0.04089, "Cu": 0.0044, "Zn": 0.01559, "Pb": 0.00348, "Hg": 0.00206, "LON": 120.75636, "LAT": 21.92546, "TYPE": "南灣核三廠沿海海域" }, "geometry": { "type": "Point", "coordinates": [ 13442536.505249228328466, 2502578.166634059511125 ] } },
{ "type": "Feature", "properties": { "STATION_NAME": "核三廠出水口左側", "SS": 35.1, "CHL_a": 1.96, "NH3_N": 0.36, "NO3_N": 0.2, "MI3PO4": 0.069, "NO2_N": 0.636, "SiO2": 1.219, "Cd": 0.0033, "Cr": 0.041, "Cu": 0.00392, "Zn": 0.01318, "Pb": 0.00342, "Hg": 0.00206, "LON": 120.752666, "LAT": 21.930821, "TYPE": "南灣核三廠沿海海域" }, "geometry": { "type": "Point", "coordinates": [ 13442125.291050238534808, 2503221.493203218560666 ] } },
{ "type": "Feature", "properties": { "STATION_NAME": "沙崙中油卸油設施一", "SS": 55.3, "CHL_a": 5.31, "NH3_N": 0.93, "NO3_N": 0.78, "MI3PO4": 0.25, "NO2_N": 0.15, "SiO2": 3.397, "Cd": 0.0027, "Cr": 0.04184, "Cu": 0.0034, "Zn": 0.01597, "Pb": 0.00342, "Hg": 0.00206, "LON": 121.197207, "LAT": 25.12133, "TYPE": "桃園沿海海域" }, "geometry": { "type": "Point", "coordinates": [ 13491611.368806973099709, 2890654.654919755645096 ] } },
{ "type": "Feature", "properties": { "STATION_NAME": "沙崙中油卸油設施二", "SS": 44.9, "CHL_a": 6.81, "NH3_N": 0.9, "NO3_N": 0.83, "MI3PO4": 0.284, "NO2_N": 0.15, "SiO2": 3.133, "Cd": 0.0027, "Cr": 0.04281, "Cu": 0.0041, "Zn": 0.01429, "Pb": 0.00342, "Hg": 0.00206, "LON": 121.219458, "LAT": 25.130409, "TYPE": "桃園沿海海域" }, "geometry": { "type": "Point", "coordinates": [ 13494088.338796613737941, 2891770.951733695343137 ] } },
{ "type": "Feature", "properties": { "STATION_NAME": "海湖電廠", "SS": 122.6, "CHL_a": 7.01, "NH3_N": 1.06, "NO3_N": 0.8, "MI3PO4": 0.301, "NO2_N": 0.17, "SiO2": 4.491, "Cd": 0.0027, "Cr": 0.04296, "Cu": 0.0041, "Zn": 0.01124, "Pb": 0.00342, "Hg": 0.00206, "LON": 121.257305, "LAT": 25.1255, "TYPE": "桃園沿海海域" }, "geometry": { "type": "Point", "coordinates": [ 13498301.447564665228128, 2891167.361626714002341 ] } },
{ "type": "Feature", "properties": { "STATION_NAME": "淡水河口外4海浬處", "SS": 36.4, "CHL_a": 7.41, "NH3_N": 1.02, "NO3_N": 0.69, "MI3PO4": 0.254, "NO2_N": 0.16, "SiO2": 3.059, "Cd": 0.0027, "Cr": 0.04276, "Cu": 0.0036, "Zn": 0.01551, "Pb": 0.00342, "Hg": 0.00206, "LON": 121.370855, "LAT": 25.207526, "TYPE": "臺北沿海海域" }, "geometry": { "type": "Point", "coordinates": [ 13510941.775744242593646, 2901256.12347239907831 ] } },
{ "type": "Feature", "properties": { "STATION_NAME": "深澳發電廠", "SS": 33.2, "CHL_a": 8.28, "NH3_N": 0.78, "NO3_N": 0.98, "MI3PO4": 0.248, "NO2_N": 0.144, "SiO2": 6.562, "Cd": 0.0054, "Cr": 0.08378, "Cu": 0.0076, "Zn": 0.0266, "Pb": 0.00684, "Hg": 0.00412, "LON": 121.829123, "LAT": 25.131742, "TYPE": "臺北沿海海域" }, "geometry": { "type": "Point", "coordinates": [ 13561955.936151092872024, 2891934.856025856919587 ] } },
{ "type": "Feature", "properties": { "STATION_NAME": "深澳發電廠外海", "SS": 17.7, "CHL_a": 4.54, "NH3_N": 0.46, "NO3_N": 0.52, "MI3PO4": 0.115, "NO2_N": 0.072, "SiO2": 3.225, "Cd": 0.0027, "Cr": 0.04176, "Cu": 0.00334, "Zn": 0.01217, "Pb": 0.00342, "Hg": 0.00206, "LON": 121.83527, "LAT": 25.134899, "TYPE": "臺北沿海海域" }, "geometry": { "type": "Point", "coordinates": [ 13562640.217061, 2892323.044594403821975 ] } },
{ "type": "Feature", "properties": { "STATION_NAME": "濁水溪口一", "SS": 408.5, "CHL_a": 13.65, "NH3_N": 0.54, "NO3_N": 0.42, "MI3PO4": 0.096, "NO2_N": 0.056, "SiO2": 2.587, "Cd": 0.0024, "Cr": 0.04215, "Cu": 0.0051, "Zn": 0.01578, "Pb": 0.00342, "Hg": 0.00206, "LON": 120.204553, "LAT": 23.868341, "TYPE": "雲林沿海海域" }, "geometry": { "type": "Point", "coordinates": [ 13381109.630993066355586, 2737373.074170252773911 ] } },
{ "type": "Feature", "properties": { "STATION_NAME": "濁水溪口二", "SS": 152.6, "CHL_a": 8.32, "NH3_N": 0.57, "NO3_N": 0.39, "MI3PO4": 0.086, "NO2_N": 0.056, "SiO2": 2.64, "Cd": 0.0024, "Cr": 0.04179, "Cu": 0.0056, "Zn": 0.01135, "Pb": 0.00342, "Hg": 0.00206, "LON": 120.178273, "LAT": 23.863066, "TYPE": "雲林沿海海域" }, "geometry": { "type": "Point", "coordinates": [ 13378184.154775017872453, 2736730.960788548458368 ] } },
{ "type": "Feature", "properties": { "STATION_NAME": "濁水溪口外4海浬", "SS": 183.0, "CHL_a": 7.65, "NH3_N": 0.58, "NO3_N": 0.39, "MI3PO4": 0.107, "NO2_N": 0.05, "SiO2": 2.698, "Cd": 0.0024, "Cr": 0.04229, "Cu": 0.00532, "Zn": 0.01479, "Pb": 0.00342, "Hg": 0.00206, "LON": 120.182572, "LAT": 23.866156, "TYPE": "雲林沿海海域" }, "geometry": { "type": "Point", "coordinates": [ 13378662.71726593747735, 2737107.096070293337107 ] } },
{ "type": "Feature", "properties": { "STATION_NAME": "濂洞溪外海", "SS": 19.8, "CHL_a": 5.84, "NH3_N": 0.5, "NO3_N": 0.51, "MI3PO4": 0.11, "NO2_N": 0.072, "SiO2": 3.33, "Cd": 0.0027, "Cr": 0.04145, "Cu": 0.00693, "Zn": 0.0102, "Pb": 0.00342, "Hg": 0.00206, "LON": 121.864277, "LAT": 25.126694, "TYPE": "臺北沿海海域" }, "geometry": { "type": "Point", "coordinates": [ 13565869.261530438438058, 2891314.168640249408782 ] } },
{ "type": "Feature", "properties": { "STATION_NAME": "烏崁海域", "SS": 31.2, "CHL_a": 3.31, "NH3_N": 0.66, "NO3_N": 0.24, "MI3PO4": 0.128, "NO2_N": 0.034, "SiO2": 1.164, "Cd": 0.0033, "Cr": 0.04232, "Cu": 0.00522, "Zn": 0.01298, "Pb": 0.00352, "Hg": 0.00206, "LON": 119.625357, "LAT": 23.540991, "TYPE": "澎湖沿海海域" }, "geometry": { "type": "Point", "coordinates": [ 13316633.827203564345837, 2697574.782633520662785 ] } },
{ "type": "Feature", "properties": { "STATION_NAME": "知本溪口", "SS": 48.1, "CHL_a": 2.25, "NH3_N": 0.38, "NO3_N": 0.22, "MI3PO4": 0.106, "NO2_N": 0.642, "SiO2": 2.983, "Cd": 0.0033, "Cr": 0.04081, "Cu": 0.00774, "Zn": 0.01629, "Pb": 0.00342, "Hg": 0.00206, "LON": 121.101178, "LAT": 22.703887, "TYPE": "臺東沿海海域" }, "geometry": { "type": "Point", "coordinates": [ 13480921.469425583258271, 2596247.841852329671383 ] } },
{ "type": "Feature", "properties": { "STATION_NAME": "石牛溪口", "SS": 38.7, "CHL_a": 2.41, "NH3_N": 0.32, "NO3_N": 0.2, "MI3PO4": 0.107, "NO2_N": 0.644, "SiO2": 1.289, "Cd": 0.0033, "Cr": 0.04141, "Cu": 0.00414, "Zn": 0.01483, "Pb": 0.00342, "Hg": 0.00206, "LON": 120.784389, "LAT": 21.942736, "TYPE": "南灣核三廠沿海海域" }, "geometry": { "type": "Point", "coordinates": [ 13445656.679256672039628, 2504651.394605623092502 ] } },
{ "type": "Feature", "properties": { "STATION_NAME": "秀姑巒溪河口", "SS": 57.6, "CHL_a": 4.8, "NH3_N": 0.23, "NO3_N": 1.14, "MI3PO4": 0.191, "NO2_N": 0.09, "SiO2": 11.318, "Cd": 0.0024, "Cr": 0.06345, "Cu": 0.00312, "Zn": 0.01255, "Pb": 0.00368, "Hg": 0.00206, "LON": 121.526013, "LAT": 23.459638, "TYPE": "花蓮沿海海域" }, "geometry": { "type": "Point", "coordinates": [ 13528213.885296745225787, 2687699.532962833996862 ] } },
{ "type": "Feature", "properties": { "STATION_NAME": "立霧溪河口", "SS": 25.8, "CHL_a": 4.2, "NH3_N": 0.21, "NO3_N": 0.96, "MI3PO4": 0.186, "NO2_N": 0.084, "SiO2": 6.067, "Cd": 0.0024, "Cr": 0.06304, "Cu": 0.00314, "Zn": 0.0099, "Pb": 0.00342, "Hg": 0.00206, "LON": 121.669926, "LAT": 24.13874, "TYPE": "花蓮沿海海域" }, "geometry": { "type": "Point", "coordinates": [ 13544234.207175277173519, 2770323.318701735697687 ] } },
{ "type": "Feature", "properties": { "STATION_NAME": "紅毛港外", "SS": 26.8, "CHL_a": 7.49, "NH3_N": 0.32, "NO3_N": 0.31, "MI3PO4": 0.068, "NO2_N": 0.052, "SiO2": 2.157, "Cd": 0.0017025, "Cr": 0.06145, "Cu": 0.00332, "Zn": 0.01895, "Pb": 0.00342, "Hg": 0.00206, "LON": 120.955767, "LAT": 24.912114, "TYPE": "新竹香山沿海海域" }, "geometry": { "type": "Point", "coordinates": [ 13464734.390949841588736, 2864953.664022408425808 ] } },
{ "type": "Feature", "properties": { "STATION_NAME": "紗帽山海域", "SS": 25.6, "CHL_a": 3.74, "NH3_N": 0.58, "NO3_N": 0.23, "MI3PO4": 0.118, "NO2_N": 0.04, "SiO2": 1.179, "Cd": 0.0023025, "Cr": 0.04241, "Cu": 0.00412, "Zn": 0.0119, "Pb": 0.00352, "Hg": 0.00206, "LON": 119.597328, "LAT": 23.507326, "TYPE": "澎湖沿海海域" }, "geometry": { "type": "Point", "coordinates": [ 13313513.653196120634675, 2693487.527760286815464 ] } },
{ "type": "Feature", "properties": { "STATION_NAME": "綠島", "SS": 20.8, "CHL_a": 3.13, "NH3_N": 0.53, "NO3_N": 0.43, "MI3PO4": 0.103, "NO2_N": 0.684, "SiO2": 1.921, "Cd": 0.0033, "Cr": 0.04176, "Cu": 0.00482, "Zn": 0.01872, "Pb": 0.00388, "Hg": 0.00206, "LON": 121.471115, "LAT": 22.657868, "TYPE": "臺東沿海海域" }, "geometry": { "type": "Point", "coordinates": [ 13522102.66789117641747, 2590695.662407497409731 ] } },
{ "type": "Feature", "properties": { "STATION_NAME": "線西水道口", "SS": 195.9, "CHL_a": 12.5, "NH3_N": 0.41, "NO3_N": 0.42, "MI3PO4": 0.109, "NO2_N": 0.064, "SiO2": 2.406, "Cd": 0.0024, "Cr": 0.04127, "Cu": 0.0049, "Zn": 0.0128, "Pb": 0.00342, "Hg": 0.00206, "LON": 120.36735, "LAT": 24.09032, "TYPE": "雲林沿海海域" }, "geometry": { "type": "Point", "coordinates": [ 13399232.110135737806559, 2764417.863151161465794 ] } },
{ "type": "Feature", "properties": { "STATION_NAME": "線西水道口外海", "SS": 184.6, "CHL_a": 10.12, "NH3_N": 0.37, "NO3_N": 0.36, "MI3PO4": 0.072, "NO2_N": 0.054, "SiO2": 2.22, "Cd": 0.0024, "Cr": 0.0413, "Cu": 0.00464, "Zn": 0.00986, "Pb": 0.00342, "Hg": 0.00206, "LON": 120.32405, "LAT": 24.08932, "TYPE": "雲林沿海海域" }, "geometry": { "type": "Point", "coordinates": [ 13394411.976184388622642, 2764295.923538667149842 ] } },
{ "type": "Feature", "properties": { "STATION_NAME": "老街溪口", "SS": 52.5, "CHL_a": 2.5, "NH3_N": 0.49, "NO3_N": 0.49, "MI3PO4": 0.199, "NO2_N": 0.114, "SiO2": 2.914, "Cd": 0.0027, "Cr": 0.06106, "Cu": 0.0041, "Zn": 0.01906, "Pb": 0.00342, "Hg": 0.00206, "LON": 121.1719546, "LAT": 25.088015, "TYPE": "桃園沿海海域" }, "geometry": { "type": "Point", "coordinates": [ 13488800.284497663378716, 2886559.162003581412137 ] } },
{ "type": "Feature", "properties": { "STATION_NAME": "老街溪口外海", "SS": 20.2, "CHL_a": 3.9, "NH3_N": 0.49, "NO3_N": 0.35, "MI3PO4": 0.146, "NO2_N": 0.084, "SiO2": 2.592, "Cd": 0.0027, "Cr": 0.06097, "Cu": 0.00332, "Zn": 0.01074, "Pb": 0.00348, "Hg": 0.00206, "LON": 121.14665, "LAT": 25.12718, "TYPE": "桃園沿海海域" }, "geometry": { "type": "Point", "coordinates": [ 13485983.389310935512185, 2891373.9246696960181 ] } },
{ "type": "Feature", "properties": { "STATION_NAME": "臺中港沿海一", "SS": 21.1, "CHL_a": 6.69, "NH3_N": 0.28, "NO3_N": 0.23, "MI3PO4": 0.124, "NO2_N": 0.046, "SiO2": 2.759, "Cd": 0.0024, "Cr": 0.061, "Cu": 0.01132, "Zn": 0.05358, "Pb": 0.00408, "Hg": 0.00206, "LON": 120.491169, "LAT": 24.310037, "TYPE": "臺中港沿海海域" }, "geometry": { "type": "Point", "coordinates": [ 13413015.578166270628572, 2791233.234735643025488 ] } },
{ "type": "Feature", "properties": { "STATION_NAME": "臺中港沿海二", "SS": 21.6, "CHL_a": 5.8, "NH3_N": 0.2, "NO3_N": 0.3, "MI3PO4": 0.115, "NO2_N": 0.054, "SiO2": 2.749, "Cd": 0.0024, "Cr": 0.06212, "Cu": 0.00732, "Zn": 0.02226, "Pb": 0.00388, "Hg": 0.00206, "LON": 120.456334, "LAT": 24.334846, "TYPE": "臺中港沿海海域" }, "geometry": { "type": "Point", "coordinates": [ 13409137.763704486191273, 2794263.961150740738958 ] } },
{ "type": "Feature", "properties": { "STATION_NAME": "花蓮港", "SS": 35.0, "CHL_a": 4.6, "NH3_N": 0.24, "NO3_N": 1.02, "MI3PO4": 0.202, "NO2_N": 0.09, "SiO2": 8.288, "Cd": 0.0024, "Cr": 0.06301, "Cu": 0.00362, "Zn": 0.01603, "Pb": 0.00342, "Hg": 0.00206, "LON": 121.624848, "LAT": 23.969075, "TYPE": "花蓮沿海海域" }, "geometry": { "type": "Point", "coordinates": [ 13539216.147169297561049, 2749640.216022983659059 ] } },
{ "type": "Feature", "properties": { "STATION_NAME": "花蓮溪河口", "SS": 166.7, "CHL_a": 4.4, "NH3_N": 0.25, "NO3_N": 1.11, "MI3PO4": 0.225, "NO2_N": 0.09, "SiO2": 10.178, "Cd": 0.0024, "Cr": 0.06298, "Cu": 0.00334, "Zn": 0.00899, "Pb": 0.00342, "Hg": 0.00206, "LON": 121.615711, "LAT": 23.944379, "TYPE": "花蓮沿海海域" }, "geometry": { "type": "Point", "coordinates": [ 13538199.020981919020414, 2746631.911605382803828 ] } },
{ "type": "Feature", "properties": { "STATION_NAME": "蘇澳港", "SS": 17.2, "CHL_a": 25.6, "NH3_N": 0.25, "NO3_N": 0.32, "MI3PO4": 0.136, "NO2_N": 0.046, "SiO2": 2.366, "Cd": 0.0027, "Cr": 0.06156, "Cu": 0.00532, "Zn": 0.01432, "Pb": 0.00342, "Hg": 0.00206, "LON": 121.884555, "LAT": 24.593861, "TYPE": "宜蘭蘇澳沿海海域" }, "geometry": { "type": "Point", "coordinates": [ 13568126.598164744675159, 2825941.447112652473152 ] } },
{ "type": "Feature", "properties": { "STATION_NAME": "蘭嶼", "SS": 18.6, "CHL_a": 3.04, "NH3_N": 0.41, "NO3_N": 0.38, "MI3PO4": 0.099, "NO2_N": 0.684, "SiO2": 1.605, "Cd": 0.0023025, "Cr": 0.04152, "Cu": 0.0088, "Zn": 0.01878, "Pb": 0.00342, "Hg": 0.00206, "LON": 121.504913, "LAT": 22.064062, "TYPE": "臺東沿海海域" }, "geometry": { "type": "Point", "coordinates": [ 13525865.044041007757187, 2519218.382121384143829 ] } },
{ "type": "Feature", "properties": { "STATION_NAME": "蘭陽溪口", "SS": 62.7, "CHL_a": 25.2, "NH3_N": 0.27, "NO3_N": 0.53, "MI3PO4": 0.156, "NO2_N": 0.052, "SiO2": 5.283, "Cd": 0.0027, "Cr": 0.06143, "Cu": 0.00582, "Zn": 0.01713, "Pb": 0.00342, "Hg": 0.00206, "LON": 121.841711, "LAT": 24.714734, "TYPE": "宜蘭蘇澳沿海海域" }, "geometry": { "type": "Point", "coordinates": [ 13563357.225901199504733, 2840746.590518091805279 ] } },
{ "type": "Feature", "properties": { "STATION_NAME": "觀音溪口", "SS": 55.0, "CHL_a": 4.2, "NH3_N": 0.5, "NO3_N": 0.43, "MI3PO4": 0.16, "NO2_N": 0.104, "SiO2": 3.084, "Cd": 0.0027, "Cr": 0.06223, "Cu": 0.00492, "Zn": 0.03987, "Pb": 0.00342, "Hg": 0.00206, "LON": 121.064251, "LAT": 25.056026, "TYPE": "桃園沿海海域" }, "geometry": { "type": "Point", "coordinates": [ 13476810.774589059874415, 2882627.726551686879247 ] } },
{ "type": "Feature", "properties": { "STATION_NAME": "豐濱溪河口", "SS": 21.7, "CHL_a": 4.0, "NH3_N": 0.21, "NO3_N": 0.9, "MI3PO4": 0.171, "NO2_N": 0.084, "SiO2": 6.153, "Cd": 0.0024, "Cr": 0.06309, "Cu": 0.00374, "Zn": 0.01421, "Pb": 0.00478, "Hg": 0.00206, "LON": 121.534833, "LAT": 23.599472, "TYPE": "花蓮沿海海域" }, "geometry": { "type": "Point", "coordinates": [ 13529195.723205540329218, 2704677.427488503046334 ] } },
{ "type": "Feature", "properties": { "STATION_NAME": "通霄溪口", "SS": 25.2, "CHL_a": 5.09, "NH3_N": 0.22, "NO3_N": 0.23, "MI3PO4": 0.1004, "NO2_N": 0.046, "SiO2": 2.633, "Cd": 0.0024, "Cr": 0.06166, "Cu": 0.00332, "Zn": 0.01762, "Pb": 0.00342, "Hg": 0.00206, "LON": 120.659172, "LAT": 24.490158, "TYPE": "新竹香山沿海海域" }, "geometry": { "type": "Point", "coordinates": [ 13431717.586578013375401, 2813250.765077689196914 ] } },
{ "type": "Feature", "properties": { "STATION_NAME": "金烈水道南側", "SS": 271.1, "CHL_a": 9.1, "NH3_N": 0.51, "NO3_N": 1.28, "MI3PO4": 0.193, "NO2_N": 0.13, "SiO2": 8.536, "Cd": 0.0024, "Cr": 0.06146, "Cu": 0.00572, "Zn": 0.01167, "Pb": 0.00342, "Hg": 0.00206, "LON": 118.281898, "LAT": 24.405262, "TYPE": "金門沿海海域" }, "geometry": { "type": "Point", "coordinates": [ 13167080.655421921983361, 2802869.382941611576825 ] } },
{ "type": "Feature", "properties": { "STATION_NAME": "金門后江灣外", "SS": 303.1, "CHL_a": 9.45, "NH3_N": 0.4, "NO3_N": 1.174, "MI3PO4": 0.239, "NO2_N": 0.124, "SiO2": 8.506, "Cd": 0.0024, "Cr": 0.06135, "Cu": 0.0062, "Zn": 0.01136, "Pb": 0.00342, "Hg": 0.00206, "LON": 118.35228, "LAT": 24.466526, "TYPE": "金門沿海海域" }, "geometry": { "type": "Point", "coordinates": [ 13174915.54382293485105, 2810360.258193302899599 ] } },
{ "type": "Feature", "properties": { "STATION_NAME": "金門本島東側沿海", "SS": 284.4, "CHL_a": 8.38, "NH3_N": 0.541, "NO3_N": 0.76, "MI3PO4": 0.123, "NO2_N": 0.094, "SiO2": 4.966, "Cd": 0.0024, "Cr": 0.04144, "Cu": 0.00522, "Zn": 0.009, "Pb": 0.00342, "Hg": 0.00291, "LON": 118.475189, "LAT": 24.439336, "TYPE": "金門沿海海域" }, "geometry": { "type": "Point", "coordinates": [ 13188597.711116844788194, 2807035.231775260996073 ] } },
{ "type": "Feature", "properties": { "STATION_NAME": "阿公店溪口", "SS": 66.8, "CHL_a": 14.64, "NH3_N": 0.44, "NO3_N": 0.15, "MI3PO4": 0.101, "NO2_N": 0.032, "SiO2": 1.134, "Cd": 0.0033, "Cr": 0.04088, "Cu": 0.0052, "Zn": 0.10238, "Pb": 0.00568, "Hg": 0.00206, "LON": 120.2130233, "LAT": 22.8037086, "TYPE": "高雄港沿海海域" }, "geometry": { "type": "Point", "coordinates": [ 13382052.540475932881236, 2608297.710394578520209 ] } },
{ "type": "Feature", "properties": { "STATION_NAME": "阿公店溪口外海", "SS": 50.5, "CHL_a": 5.78, "NH3_N": 0.43, "NO3_N": 0.13, "MI3PO4": 0.097, "NO2_N": 0.024, "SiO2": 0.971, "Cd": 0.0033, "Cr": 0.04076, "Cu": 0.005, "Zn": 0.04932, "Pb": 0.00418, "Hg": 0.00206, "LON": 120.14981, "LAT": 22.78236, "TYPE": "高雄港沿海海域" }, "geometry": { "type": "Point", "coordinates": [ 13375015.668108567595482, 2605719.894080733880401 ] } },
{ "type": "Feature", "properties": { "STATION_NAME": "頭前溪口南側", "SS": 23.5, "CHL_a": 7.09, "NH3_N": 0.26, "NO3_N": 0.294, "MI3PO4": 0.063, "NO2_N": 0.052, "SiO2": 2.145, "Cd": 0.0017025, "Cr": 0.06103, "Cu": 0.00302, "Zn": 0.01013, "Pb": 0.00342, "Hg": 0.00206, "LON": 120.907177, "LAT": 24.841557, "TYPE": "新竹香山沿海海域" }, "geometry": { "type": "Point", "coordinates": [ 13459325.376892199739814, 2856295.983910182490945 ] } },
{ "type": "Feature", "properties": { "STATION_NAME": "馬祖海峽", "SS": 134.4, "CHL_a": 12.4, "NH3_N": 0.411, "NO3_N": 0.95, "MI3PO4": 0.285, "NO2_N": 0.054, "SiO2": 5.68, "Cd": 0.0024, "Cr": 0.04093, "Cu": 0.0052, "Zn": 0.01647, "Pb": 0.00342, "Hg": 0.00206, "LON": 119.94976, "LAT": 26.194569, "TYPE": "馬祖沿海海域" }, "geometry": { "type": "Point", "coordinates": [ 13352746.20397537574172, 3023199.172279625665396 ] } },
{ "type": "Feature", "properties": { "STATION_NAME": "高屏溪出海口", "SS": 100.9, "CHL_a": 57.31, "NH3_N": 0.76, "NO3_N": 0.394, "MI3PO4": 0.284, "NO2_N": 0.096, "SiO2": 4.552, "Cd": 0.0023025, "Cr": 0.04112, "Cu": 0.0036, "Zn": 0.02017, "Pb": 0.00342, "Hg": 0.00206, "LON": 120.422062, "LAT": 22.471587, "TYPE": "高屏溪口沿海海域" }, "geometry": { "type": "Point", "coordinates": [ 13405322.622116019949317, 2568239.877908574417233 ] } },
{ "type": "Feature", "properties": { "STATION_NAME": "高屏溪口外4海浬", "SS": 51.1, "CHL_a": 3.93, "NH3_N": 0.71, "NO3_N": 0.404, "MI3PO4": 0.127, "NO2_N": 0.062, "SiO2": 4.957, "Cd": 0.0023025, "Cr": 0.04099, "Cu": 0.0031, "Zn": 0.01878, "Pb": 0.00358, "Hg": 0.00206, "LON": 120.392698, "LAT": 22.413756, "TYPE": "高屏溪口沿海海域" }, "geometry": { "type": "Point", "coordinates": [ 13402053.836588365957141, 2561274.625594922341406 ] } },
{ "type": "Feature", "properties": { "STATION_NAME": "高屏溪東港溪之間-1", "SS": 113.4, "CHL_a": 8.32, "NH3_N": 0.79, "NO3_N": 0.484, "MI3PO4": 0.148, "NO2_N": 0.076, "SiO2": 2.765, "Cd": 0.0023025, "Cr": 0.04125, "Cu": 0.0035, "Zn": 0.02687, "Pb": 0.00342, "Hg": 0.00206, "LON": 120.428812, "LAT": 22.471309, "TYPE": "高屏溪口沿海海域" }, "geometry": { "type": "Point", "coordinates": [ 13406074.028678873553872, 2568206.388222237117589 ] } },
{ "type": "Feature", "properties": { "STATION_NAME": "高雄港口外一", "SS": 70.2, "CHL_a": 6.83, "NH3_N": 0.56, "NO3_N": 0.18, "MI3PO4": 0.1, "NO2_N": 0.042, "SiO2": 1.363, "Cd": 0.0033, "Cr": 0.04105, "Cu": 0.0043, "Zn": 0.02241, "Pb": 0.00342, "Hg": 0.00206, "LON": 120.244741, "LAT": 22.637319, "TYPE": "高雄港沿海海域" }, "geometry": { "type": "Point", "coordinates": [ 13385583.338689064607024, 2588217.032721654046327 ] } },
{ "type": "Feature", "properties": { "STATION_NAME": "高雄港口外三", "SS": 49.3, "CHL_a": 9.34, "NH3_N": 0.57, "NO3_N": 0.2, "MI3PO4": 0.086, "NO2_N": 0.042, "SiO2": 1.423, "Cd": 0.0033, "Cr": 0.04115, "Cu": 0.0043, "Zn": 0.06903, "Pb": 0.00468, "Hg": 0.00206, "LON": 120.287041, "LAT": 22.559261, "TYPE": "高雄港沿海海域" }, "geometry": { "type": "Point", "coordinates": [ 13390292.153149619698524, 2578805.016248781234026 ] } },
{ "type": "Feature", "properties": { "STATION_NAME": "高雄港口外二", "SS": 53.2, "CHL_a": 10.94, "NH3_N": 0.57, "NO3_N": 0.18, "MI3PO4": 0.102, "NO2_N": 0.034, "SiO2": 1.376, "Cd": 0.0033, "Cr": 0.04125, "Cu": 0.0045, "Zn": 0.06547, "Pb": 0.00414, "Hg": 0.00206, "LON": 120.244184, "LAT": 22.611874, "TYPE": "高雄港沿海海域" }, "geometry": { "type": "Point", "coordinates": [ 13385521.333732694387436, 2585148.358940942212939 ] } },
{ "type": "Feature", "properties": { "STATION_NAME": "鳳山溪北側", "SS": 28.6, "CHL_a": 7.09, "NH3_N": 0.27, "NO3_N": 0.32, "MI3PO4": 0.089, "NO2_N": 0.052, "SiO2": 2.173, "Cd": 0.0017025, "Cr": 0.06137, "Cu": 0.00415, "Zn": 0.045, "Pb": 0.00342, "Hg": 0.00206, "LON": 120.92978, "LAT": 24.868144, "TYPE": "新竹香山沿海海域" }, "geometry": { "type": "Point", "coordinates": [ 13461841.531342599540949, 2859557.755140023306012 ] } },
{ "type": "Feature", "properties": { "STATION_NAME": "鹽水溪口", "SS": 42.4, "CHL_a": 10.18, "NH3_N": 0.38, "NO3_N": 0.158, "MI3PO4": 0.156, "NO2_N": 0.032, "SiO2": 0.946, "Cd": 0.0024, "Cr": 0.04076, "Cu": 0.00422, "Zn": 0.03303, "Pb": 0.00368, "Hg": 0.00206, "LON": 120.13667, "LAT": 22.99342, "TYPE": "二仁溪口沿海海域" }, "geometry": { "type": "Point", "coordinates": [ 13373552.92999954521656, 2631222.917286409530789 ] } },
{ "type": "Feature", "properties": { "STATION_NAME": "鹿耳門溪口", "SS": 70.2, "CHL_a": 13.23, "NH3_N": 0.34, "NO3_N": 0.178, "MI3PO4": 0.174, "NO2_N": 0.032, "SiO2": 0.924, "Cd": 0.0014025, "Cr": 0.04086, "Cu": 0.00472, "Zn": 0.03035, "Pb": 0.00358, "Hg": 0.00206, "LON": 120.10614, "LAT": 23.01773, "TYPE": "二仁溪口沿海海域" }, "geometry": { "type": "Point", "coordinates": [ 13370154.345945624634624, 2634162.922032056376338 ] } },
{ "type": "Feature", "properties": { "STATION_NAME": "龍門海域", "SS": 30.6, "CHL_a": 4.48, "NH3_N": 0.38, "NO3_N": 0.23, "MI3PO4": 0.115, "NO2_N": 0.032, "SiO2": 1.372, "Cd": 0.0033, "Cr": 0.04218, "Cu": 0.00492, "Zn": 0.01045, "Pb": 0.00352, "Hg": 0.00206, "LON": 119.672052, "LAT": 23.552544, "TYPE": "澎湖沿海海域" }, "geometry": { "type": "Point", "coordinates": [ 13321831.890826156362891, 2698977.669045014306903 ] } },
{ "type": "Feature", "properties": { "STATION_NAME": "龍門鹽寮外海", "SS": 22.6, "CHL_a": 4.24, "NH3_N": 0.43, "NO3_N": 0.53, "MI3PO4": 0.138, "NO2_N": 0.066, "SiO2": 3.809, "Cd": 0.0027, "Cr": 0.04091, "Cu": 0.00302, "Zn": 0.01508, "Pb": 0.00342, "Hg": 0.00206, "LON": 121.938777, "LAT": 25.045389, "TYPE": "臺北沿海海域" }, "geometry": { "type": "Point", "coordinates": [ 13574162.563594538718462, 2881320.670852555893362 ] } },
{ "type": "Feature", "properties": { "STATION_NAME": "龜山島", "SS": 15.2, "CHL_a": 3.2, "NH3_N": 0.28, "NO3_N": 0.32, "MI3PO4": 0.125, "NO2_N": 0.042, "SiO2": 3.099, "Cd": 0.0027, "Cr": 0.06187, "Cu": 0.00514, "Zn": 0.01869, "Pb": 0.00342, "Hg": 0.00206, "LON": 121.943413, "LAT": 24.828021, "TYPE": "宜蘭蘇澳沿海海域" }, "geometry": { "type": "Point", "coordinates": [ 13574678.640753857791424, 2854635.616898710373789 ] } }
]
}
